{"keyword":"酒店","QE":0,"gD":10,"Nr":760,"HE":76,"city":"北京市","province":"北京市","moreResultsUrl":"http://api.map.baidu.com/place/search?res=jsapi&query=酒店&region=北京市&output=html","Pl":[{"title":"都季商务快捷酒店","uid":"f60a15ed3d7c8ef5bb17e70a","point":{"lng":116.413347,"lat":39.917603},"url":"http://map.baidu.com/?s=inf%26uid%3Df60a15ed3d7c8ef5bb17e70a%26c%3D131&i=0&sr=1","detailUrl":"http://api.map.baidu.com/place/detail?uid=f60a15ed3d7c8ef5bb17e70a&output=html&source=jsapi","address":"南河沿大街华龙街D座","city":"北京市","province":"北京市","phoneNumber":"(010)85116665","type":0,"isAccurate":false,"tags":["宾馆","旅店"]},{"title":"飘HOME连锁酒店（国贸东店）","uid":"79cceb3678b25b901e58000b","point":{"lng":116.479412,"lat":39.908395},"url":"http://map.baidu.com/?s=inf%26uid%3D79cceb3678b25b901e58000b%26c%3D131&i=0&sr=1","detailUrl":"http://api.map.baidu.com/place/detail?uid=79cceb3678b25b901e58000b&output=html&source=jsapi","address":"北京市朝阳区西大望路甲12号","city":"北京市","province":"北京市","phoneNumber":"010-59876666","type":0,"isAccurate":false,"tags":["宾馆"]},{"title":"北京首都机场国际酒店","uid":"ea52ac61bbba70e7fe0eb04a","point":{"lng":116.592276,"lat":40.083954},"url":"http://map.baidu.com/?s=inf%26uid%3Dea52ac61bbba70e7fe0eb04a%26c%3D131&i=0&sr=1","detailUrl":"http://api.map.baidu.com/place/detail?uid=ea52ac61bbba70e7fe0eb04a&output=html&source=jsapi","address":"北京首都机场货运路2号综合楼（免费接送机服务）","city":"北京市","province":"北京市","phoneNumber":"(010)84162288","type":0,"isAccurate":false,"tags":["宾馆"]},{"title":"雅悦酒店北京西直门店","uid":"cdef4edf2d06dd5728d7ab03","point":{"lng":116.3735,"lat":39.946269},"url":"http://map.baidu.com/?s=inf%26uid%3Dcdef4edf2d06dd5728d7ab03%26c%3D131&i=0&sr=1","detailUrl":"http://api.map.baidu.com/place/detail?uid=cdef4edf2d06dd5728d7ab03&output=html&source=jsapi","address":"西城区西直门内大街126号（西直门天主堂东侧）","city":"北京市","province":"北京市","phoneNumber":"(010)66170420","type":0,"isAccurate":false,"tags":["宾馆"]},{"title":"万通驿馆北京中关村店","uid":"637df60a095ad50e40afe62a","point":{"lng":116.316207,"lat":39.984274},"url":"http://map.baidu.com/?s=inf%26uid%3D637df60a095ad50e40afe62a%26c%3D131&i=0&sr=1","detailUrl":"http://api.map.baidu.com/place/detail?uid=637df60a095ad50e40afe62a&output=html&source=jsapi","address":"北京市海淀区丹棱街16号海兴大厦B座二、三层（近海淀区人民法院）","city":"北京市","province":"北京市","phoneNumber":"(010)52719998","type":0,"isAccurate":false,"tags":["宾馆","旅店"]},{"title":"飘HOME连锁酒店（东四店）","uid":"a5ef680f21b6daceb9df8f07","point":{"lng":116.424238,"lat":39.937598},"url":"http://map.baidu.com/?s=inf%26uid%3Da5ef680f21b6daceb9df8f07%26c%3D131&i=0&sr=1","detailUrl":"http://api.map.baidu.com/place/detail?uid=a5ef680f21b6daceb9df8f07&output=html&source=jsapi","address":"北京市东城区东四七条（地铁张自忠路站C口向南100米）","city":"北京市","province":"北京市","phoneNumber":"4006506668，010-59876388","type":0,"isAccurate":false,"tags":["宾馆"]},{"title":"富驿时尚酒店（北京燕莎店）","uid":"8fde79cc13633ca694ca07a6","point":{"lng":116.473295,"lat":39.953584},"url":"http://map.baidu.com/?s=inf%26uid%3D8fde79cc13633ca694ca07a6%26c%3D131&i=0&sr=1","detailUrl":"http://api.map.baidu.com/place/detail?uid=8fde79cc13633ca694ca07a6&output=html&source=jsapi","address":"北京市朝阳区麦子店西街39号","city":"北京市","province":"北京市","phoneNumber":"4008200868,010-65848066","type":0,"isAccurate":false,"tags":["宾馆"]},{"title":"北京香江戴斯酒店","uid":"d0b8923fcbb54ffbb5f42f07","point":{"lng":116.412688,"lat":39.916226},"url":"http://map.baidu.com/?s=inf%26uid%3Dd0b8923fcbb54ffbb5f42f07%26c%3D131&i=0&sr=1","detailUrl":"http://api.map.baidu.com/place/detail?uid=d0b8923fcbb54ffbb5f42f07&output=html&source=jsapi","address":"北京市东城区南河沿大街南湾子胡同1号(毗邻王府井金街西侧,步行可至天安门广场)","city":"北京市","province":"北京市","phoneNumber":"(010)65127788","postcode":"100006","type":0,"isAccurate":false,"tags":["宾馆","星级宾馆<font color=\"#c60a00\">酒店</font>","四星级"]},{"title":"石景山海航大酒店","uid":"0ed20a15b7a4e88e56bfffb0","point":{"lng":116.20936,"lat":39.910976},"url":"http://map.baidu.com/?s=inf%26uid%3D0ed20a15b7a4e88e56bfffb0%26c%3D131&i=0&sr=1","detailUrl":"http://api.map.baidu.com/place/detail?uid=0ed20a15b7a4e88e56bfffb0&output=html&source=jsapi","address":"北京市石景山区体育场南路11号","city":"北京市","province":"北京市","phoneNumber":"(010)68876688","type":0,"isAccurate":false,"tags":["宾馆"]},{"title":"北京富豪宾馆（新楼A座）)","uid":"4edf9fbf5f48e68dcc06a402","point":{"lng":116.41653,"lat":39.928033},"url":"http://map.baidu.com/?s=inf%26uid%3D4edf9fbf5f48e68dcc06a402%26c%3D131&i=0&sr=1","detailUrl":"http://api.map.baidu.com/place/detail?uid=4edf9fbf5f48e68dcc06a402&output=html&source=jsapi","address":"东城区王府井大街45号（近王府井大街，首都剧场正对面 ）","city":"北京市","province":"北京市","phoneNumber":"(010)65231188,(010)65130522","type":0,"isAccurate":false,"tags":["宾馆"]}],"MC":[],"suggestions":[],"$r":"s"}